{"type":"FeatureCollection","features":[{"type":"Feature","geometry":{"type":"Point","coordinates":[29.610277780000047,-1.7822222199999374]},"properties":{"Nursery_na":"Gapfura (gatega)","Village":"Gapfura","Cell":"Gatega","Sector":"Hindiro","District":"Ngororero","Lat":-1.78222222,"Long":29.61027778,"status":"2026 nursery"}},{"type":"Feature","geometry":{"type":"Point","coordinates":[29.588207500000067,-1.9317249999999717]},"properties":{"Nursery_na":"Bushyogero","Village":"Bushyogero","Cell":"Cyahafi","Sector":"Bwira","District":"Ngororero","Lat":-1.931725,"Long":29.5882075,"status":"Other nursery"}},{"type":"Feature","geometry":{"type":"Point","coordinates":[29.55165556000003,-1.9081666699999573]},"properties":{"Nursery_na":"Rubindi","Village":"Rubindi","Cell":"Musenyi","Sector":"Sovu","District":"Ngororero","Lat":-1.90816667,"Long":29.55165556,"status":"Other nursery"}},{"type":"Feature","geometry":{"type":"Point","coordinates":[29.570576600000038,-1.8654549999999404]},"properties":{"Nursery_na":"Ruganda","Village":"Ruganda","Cell":"Kageshi","Sector":"Kageyo","District":"Ngororero","Lat":-1.865455,"Long":29.5705766,"status":"2026 nursery"}},{"type":"Feature","geometry":{"type":"Point","coordinates":[29.48936800000007,-1.8935509999999454]},"properties":{"Nursery_na":"Butenga","Village":"Butenga","Cell":"Nyabipfura","Sector":"Sovu","District":"Ngororero","Lat":-1.893551,"Long":29.489368,"status":"2026 nursery"}},{"type":"Feature","geometry":{"type":"Point","coordinates":[29.549068000000034,-1.989484999999945]},"properties":{"Nursery_na":"Kideberi","Village":"Kideberi","Cell":"Kibanda","Sector":"Ndaro","District":"Ngororero","Lat":-1.989485,"Long":29.549068,"status":"2026 nursery"}},{"type":"Feature","geometry":{"type":"Point","coordinates":[29.64963300000005,-1.9094929999999408]},"properties":{"Nursery_na":"Gapfura (rusororo)","Village":"Gapfura","Cell":"Rusororo","Sector":"Muhororo","District":"Ngororero","Lat":-1.909493,"Long":29.649633,"status":"2026 nursery"}},{"type":"Feature","geometry":{"type":"Point","coordinates":[29.576140000000066,-1.9584369999999467]},"properties":{"Nursery_na":"Kurushishi","Village":"Kurushishi","Cell":"Kabarondo","Sector":"Bwira","District":"Ngororero","Lat":-1.958437,"Long":29.57614,"status":"Other nursery"}},{"type":"Feature","geometry":{"type":"Point","coordinates":[29.539743000000044,-1.8930479999999648]},"properties":{"Nursery_na":"Mahembe","Village":"Mahembe","Cell":"Birembo","Sector":"Sovu","District":"Ngororero","Lat":-1.893048,"Long":29.539743,"status":"Other nursery"}},{"type":"Feature","geometry":{"type":"Point","coordinates":[29.61965900000007,-1.8099579999999378]},"properties":{"Nursery_na":"Buyungu","Village":"Buyungu","Cell":"Gatare","Sector":"Hindiro","District":"Ngororero","Lat":-1.809958,"Long":29.619659,"status":"2026 nursery"}},{"type":"Feature","geometry":{"type":"Point","coordinates":[29.596992000000057,-1.9035019999999463]},"properties":{"Nursery_na":"Nyaruhondo","Village":"Nyaruhondo","Cell":"Sanza","Sector":"Muhororo","District":"Ngororero","Lat":-1.903502,"Long":29.596992,"status":"2026 nursery"}},{"type":"Feature","geometry":{"type":"Point","coordinates":[29.608187000000044,-2.01517199999995]},"properties":{"Nursery_na":"Gasayo","Village":"Rwamikeri","Cell":"Bitabage","Sector":"Ndaro","District":"Ngororero","Lat":-2.015172,"Long":29.608187,"status":"Other nursery"}},{"type":"Feature","geometry":{"type":"Point","coordinates":[29.606700000000046,-1.810799999999972]},"properties":{"Nursery_na":"Marantima","Village":"Karambo","Cell":"Marantima","Sector":"Hindiro","District":"Ngororero","Lat":-1.8108,"Long":29.6067,"status":"2026 nursery"}},{"type":"Feature","geometry":{"type":"Point","coordinates":[29.549194044000046,-1.9361341389999325]},"properties":{"Nursery_na":"Kanyana","Village":"Gashihe","Cell":"Kanyana","Sector":"Sovu","District":"Ngororero","Lat":-1.936134139,"Long":29.549194044,"status":"2026 nursery"}},{"type":"Feature","geometry":{"type":"Point","coordinates":[29.621956700000055,-1.8318982999999776]},"properties":{"Nursery_na":"Gasiza","Village":"Gasiza","Cell":"Rwamamara","Sector":"Kageyo","District":"Ngororero","Lat":-1.8318983,"Long":29.6219567,"status":"2026 nursery"}},{"type":"Feature","geometry":{"type":"Point","coordinates":[29.654211700000076,-1.8937266999999451]},"properties":{"Nursery_na":"Mitsimbi","Village":"Mitsimbi","Cell":"Mubuga","Sector":"Muhororo","District":"Ngororero","Lat":-1.8937267,"Long":29.6542117,"status":"Other nursery"}},{"type":"Feature","geometry":{"type":"Point","coordinates":[29.552223000000026,-1.9811119999999391]},"properties":{"Nursery_na":"Kaziba","Village":"Rukeri","Cell":"Gashubi","Sector":"Bwira","District":"Ngororero","Lat":-1.981112,"Long":29.552223,"status":"Other nursery"}},{"type":"Feature","geometry":{"type":"Point","coordinates":[29.592040000000054,-1.9703779999999256]},"properties":{"Nursery_na":"Mukibari","Village":"Kandamira","Cell":"Kabageshi","Sector":"Ndaro","District":"Ngororero","Lat":-1.970378,"Long":29.59204,"status":"Other nursery"}},{"type":"Feature","geometry":{"type":"Point","coordinates":[29.623090000000047,-1.897329999999954]},"properties":{"Nursery_na":"Myiha","Village":"Myiha","Cell":"Myiha","Sector":"Muhororo","District":"Ngororero","Lat":-1.89733,"Long":29.62309,"status":"2026 nursery"}},{"type":"Feature","geometry":{"type":"Point","coordinates":[29.46018689300007,-1.909801540999979]},"properties":{"Nursery_na":"Birambo","Village":"Birambo","Cell":"Muyira","Sector":"Manihira","District":"Rutsiro","Lat":-1.909801541,"Long":29.460186893,"status":"2026 nursery"}},{"type":"Feature","geometry":{"type":"Point","coordinates":[29.425335000000075,-1.9571619999999257]},"properties":{"Nursery_na":"Kanama","Village":"Kanama","Cell":"Tangabo","Sector":"Manihira","District":"Rutsiro","Lat":-1.957162,"Long":29.425335,"status":"Other nursery"}},{"type":"Feature","geometry":{"type":"Point","coordinates":[29.410761000000036,-1.8420309999999631]},"properties":{"Nursery_na":"Bitenga","Village":"Rukoko","Cell":"Gihira","Sector":"Ruhango","District":"Rutsiro","Lat":-1.842031,"Long":29.410761,"status":"2026 nursery"}},{"type":"Feature","geometry":{"type":"Point","coordinates":[29.389987000000076,-1.8751519999999573]},"properties":{"Nursery_na":"Cyashenge","Village":"Cyashenge","Cell":"Rugasa","Sector":"Ruhango","District":"Rutsiro","Lat":-1.875152,"Long":29.389987,"status":"Other nursery"}},{"type":"Feature","geometry":{"type":"Point","coordinates":[29.436710000000062,-1.9823769999999286]},"properties":{"Nursery_na":"Cyogo","Village":"Karambira","Cell":"Gitwa","Sector":"Mushubati","District":"Rutsiro","Lat":-1.982377,"Long":29.43671,"status":"2026 nursery"}},{"type":"Feature","geometry":{"type":"Point","coordinates":[29.383668000000057,-1.946470999999974]},"properties":{"Nursery_na":"Rwabiregeya","Village":"Bweramana","Cell":"Teba","Sector":"Gihango","District":"Rutsiro","Lat":-1.946471,"Long":29.383668,"status":"Other nursery"}},{"type":"Feature","geometry":{"type":"Point","coordinates":[29.445250000000044,-2.0461499999999546]},"properties":{"Nursery_na":"Ntaruko","Village":"Gako","Cell":"Kagusa","Sector":"Mukura","District":"Rutsiro","Lat":-2.04615,"Long":29.44525,"status":"2026 nursery"}},{"type":"Feature","geometry":{"type":"Point","coordinates":[29.360735000000034,-1.9959629999999606]},"properties":{"Nursery_na":"Kabuga","Village":"Kabuga","Cell":"Ruhingo","Sector":"Gihango","District":"Rutsiro","Lat":-1.995963,"Long":29.360735,"status":"Other nursery"}},{"type":"Feature","geometry":{"type":"Point","coordinates":[29.336303000000044,-1.9257129999999734]},"properties":{"Nursery_na":"Nyaweza","Village":"Rwumba","Cell":"Murambi","Sector":"Musasa","District":"Rutsiro","Lat":-1.925713,"Long":29.336303,"status":"Other nursery"}},{"type":"Feature","geometry":{"type":"Point","coordinates":[29.35216500000007,-1.8765769999999407]},"properties":{"Nursery_na":"Kavumu","Village":"Muhingo","Cell":"Kavumu","Sector":"Ruhango","District":"Rutsiro","Lat":-1.876577,"Long":29.352165,"status":"Other nursery"}},{"type":"Feature","geometry":{"type":"Point","coordinates":[29.393539000000033,-1.976069999999936]},"properties":{"Nursery_na":"Malayika","Village":"Kabiraho","Cell":"Bumba","Sector":"Mushubati","District":"Rutsiro","Lat":-1.97607,"Long":29.393539,"status":"2026 nursery"}},{"type":"Feature","geometry":{"type":"Point","coordinates":[29.339957000000027,-1.9754669999999805]},"properties":{"Nursery_na":"Nyaruhobobo","Village":"Murama","Cell":"Gabiro","Sector":"Musasa","District":"Rutsiro","Lat":-1.975467,"Long":29.339957,"status":"Other nursery"}},{"type":"Feature","geometry":{"type":"Point","coordinates":[29.379436000000055,-1.9310989999999606]},"properties":{"Nursery_na":"Nyakibanda","Village":"Nyakibanda","Cell":"Mataba","Sector":"Gihango","District":"Rutsiro","Lat":-1.931099,"Long":29.379436,"status":"Other nursery"}},{"type":"Feature","geometry":{"type":"Point","coordinates":[29.402765000000045,-2.0126849999999763]},"properties":{"Nursery_na":"Nyakiriba","Village":"Bivumu","Cell":"Cyarusera","Sector":"Mushubati","District":"Rutsiro","Lat":-2.012685,"Long":29.402765,"status":"2026 nursery"}},{"type":"Feature","geometry":{"type":"Point","coordinates":[29.470191940000063,-1.9439380089999645]},"properties":{"Nursery_na":"Kibara","Village":"Kibara","Cell":"Kabona","Sector":"Rusebeya","District":"Rutsiro","Lat":-1.943938009,"Long":29.47019194,"status":"2026 nursery"}},{"type":"Feature","geometry":{"type":"Point","coordinates":[29.43879000000004,-1.8895359999999641]},"properties":{"Nursery_na":"Ruhanga","Village":"Ruhanga","Cell":"Kirwa","Sector":"Murunda","District":"Rutsiro","Lat":-1.889536,"Long":29.43879,"status":"2026 nursery"}},{"type":"Feature","geometry":{"type":"Point","coordinates":[29.50231623800005,-1.9555595089999542]},"properties":{"Nursery_na":"Rumenankono","Village":"Kigali","Cell":"Ruronde","Sector":"Rusebeya","District":"Rutsiro","Lat":-1.955559509,"Long":29.502316238,"status":"Other nursery"}},{"type":"Feature","geometry":{"type":"Point","coordinates":[29.369655000000023,-2.0088879999999563]},"properties":{"Nursery_na":"Sebisusa","Village":"Nyagahinga","Cell":"Sure","Sector":"Mushubati","District":"Rutsiro","Lat":-2.008888,"Long":29.369655,"status":"Other nursery"}},{"type":"Feature","geometry":{"type":"Point","coordinates":[29.39184000000006,-1.9048629999999775]},"properties":{"Nursery_na":"Twabugezi","Village":"Rwanika","Cell":"Twabugezi","Sector":"Murunda","District":"Rutsiro","Lat":-1.904863,"Long":29.39184,"status":"Other nursery"}},{"type":"Feature","geometry":{"type":"Point","coordinates":[29.493013000000076,-2.008399999999938]},"properties":{"Nursery_na":"Kibuga","Village":"Mukura site I","Cell":"Kageyo","Sector":"Mukura","District":"Rutsiro","Lat":-2.0084,"Long":29.493013,"status":"2026 nursery"}},{"type":"Feature","geometry":{"type":"Point","coordinates":[29.518548000000067,-2.0448919999999475]},"properties":{"Nursery_na":"Rushabarara","Village":"Kagogo","Cell":"Mwendo","Sector":"Mukura","District":"Rutsiro","Lat":-2.044892,"Long":29.518548,"status":"2026 nursery"}}]}